{"787377584866590720":{"latitude":30.1658207,"longitude":-95.4612625,"name":"tmj_hou_nursing","epoch":1476560419,"userid":22155388,"status":"We're #hiring! Read about our latest #job opening here: Unit Tech-ICU (Nights) Full Time - https://t.co/OLSd2lUM1K #TheWoodlands, TX","key":"job"},"787377584870789120":{"latitude":38.979594,"longitude":-76.5239668,"name":"tmj_bal_hrta","epoch":1476560419,"userid":22454634,"status":"See our latest 1901 WEST STREET, #ANNAPOLIS, MD #job and click to apply: Shift Supervisor (US) - https://t.co/aSD9eJ0Eo1 #Hospitality","key":"job"},"787378406954377216":{"latitude":41.6572562,"longitude":-87.6800486,"name":"tmj_chi_nursing","epoch":1476560615,"userid":22148601,"status":"We're #hiring! Read about our latest #job opening here: Emergency Room RN needed ASAP - https://t.co/kBP3U36qeK #Nursing #BlueIsland, IL","key":"job"},"787378537007226882":{"latitude":39.2112226,"longitude":-76.9352456,"name":"tmj_bal_cosmo","epoch":1476560646,"userid":47018030,"status":"This #job might be a great fit for you: Hair Stylist - https://t.co/Gyr7xv5tIH #Cosmetology #CLARKSVILLE, MD #Hiring #CareerArc","key":"job"},"787378553771872256":{"latitude":37.68,"longitude":-113.06,"name":"CedarCityUT","epoch":1476560650,"userid":132361176,"status":"temperature up 64°F -> 66°F\nhumidity up 25% -> 26%\nwind 10mph -> 12mph","key":"wind"},"787378553784381440":{"latitude":30.4432698,"longitude":-84.2813422,"name":"FSAjobs","epoch":1476560650,"userid":1732288429,"status":"This #job might be a great fit for you: Records Examiner / Analyst at USAO - https://t.co/MAc7tH11Wo #ProjectMgmt… https://t.co/aYrNbK2sII","key":"job"},"787378767664590848":{"latitude":42.0645396,"longitude":-72.5125863,"name":"tmj_ctn_health","epoch":1476560701,"userid":25390812,"status":"We're #hiring! Read about our latest #job opening here: Pharmacist - Staff - https://t.co/PhR7jodk3O #Healthcare #EastLongmeadow, MA","key":"job"},"787379325519536128":{"latitude":30.267153,"longitude":-97.7430608,"name":"tmj_aus_jobs","epoch":1476560834,"userid":38021608,"status":"We're #hiring! Read about our latest #job opening here: Clerk/Cashier - https://t.co/1fa0s6RdMW #Austin, TX #CareerArc","key":"job"},"787379325527994368":{"latitude":47.61,"longitude":-122.33,"name":"tmj_sea_nursing","epoch":1476560834,"userid":22156198,"status":"Join the Swedish Medical Center team! See our latest #job opening here: https://t.co/oUwbnMMwQz #Nursing #Seattle, WA #Hiring #CareerArc","key":"job"},"787379363255726080":{"latitude":43.1435564,"longitude":-93.3788108,"name":"tmj_usa_manuf","epoch":1476560843,"userid":43624785,"status":"Can you recommend anyone for this #job in #ClearLake, IA? https://t.co/YN5IB2qTIw #KellyJobs #KellyServices #Manufacturing #Hiring","key":"job"}}